METEO-START
$WIMWV,90,R,010.00,N,A*01 $WIXDR,C,+002.3,C,TEMP,P,1.0089,B,PRESS,H,067.2,P,RH*3C
METEO-END
HDT-START
HDT-END
RMC-START
RMC-END
METEO-START
$WIMWV,90,R,010.00,N,A*01 $WIXDR,C,+002.3,C,TEMP,P,1.0089,B,PRESS,H,067.2,P,RH*3C
METEO-END
HDT-START
$HEROT,000.0,A*2B $HEHDT,114.8,T*23
HDT-END
RMC-START
$GPDTM,W84,,00.0000,N,00.0000,E,,W84*41 $GPRMC,112354,A,6943.6768,N,03001.8823,E,0.0,218.9,270515,14.1,E*40
RMC-END
METEO-START
$WIMWV,90,R,010.00,N,A*01 $WIXDR,C,+002.3,C,TEMP,P,1.0089,B,PRESS,H,067.2,P,RH*3C
METEO-END
HDT-START
$HEROT,000.0,A*2B $HEHDT,114.8,T*23
HDT-END
RMC-START
$GPDTM,W84,,00.0000,N,00.0000,E,,W84*41 $GPRMC,112354,A,6943.6768,N,03001.8823,E,0.0,218.9,270515,14.1,E*40
RMC-END
METEO-START
$WIMWV,90,R,010.00,N,A*01 $WIXDR,C,+002.3,C,TEMP,P,1.0089,B,PRESS,H,067.2,P,RH*3C
METEO-END
HDT-START
$HEROT,000.0,A*2B $HEHDT,114.8,T*23
HDT-END
RMC-START
$GPDTM,W84,,00.0000,N,00.0000,E,,W84*41 $GPRMC,112354,A,6943.6768,N,03001.8823,E,0.0,218.9,270515,14.1,E*40
RMC-END
METEO-START
$WIMWV,90,R,010.00,N,A*01 $WIXDR,C,+002.3,C,TEMP,P,1.0089,B,PRESS,H,067.2,P,RH*3C
METEO-END
HDT-START
$HEROT,000.0,A*2B $HEHDT,114.8,T*23
HDT-END
RMC-START
$GPDTM,W84,,00.0000,N,00.0000,E,,W84*41 $GPRMC,112354,A,6943.6768,N,03001.8823,E,0.0,218.9,270515,14.1,E*40
RMC-END
METEO-START
$WIMWV,90,R,010.00,N,A*01 $WIXDR,C,+002.3,C,TEMP,P,1.0089,B,PRESS,H,067.2,P,RH*3C
METEO-END
HDT-START
$HEROT,000.0,A*2B $HEHDT,114.8,T*23
HDT-END
RMC-START
$GPDTM,W84,,00.0000,N,00.0000,E,,W84*41 $GPRMC,112354,A,6943.6768,N,03001.8823,E,0.0,218.9,270515,14.1,E*40
RMC-END
METEO-START
$WIMWV,90,R,010.00,N,A*01 $WIXDR,C,+002.3,C,TEMP,P,1.0089,B,PRESS,H,067.2,P,RH*3C
METEO-END
HDT-START
$HEROT,000.0,A*2B $HEHDT,114.8,T*23
HDT-END
RMC-START
$GPDTM,W84,,00.0000,N,00.0000,E,,W84*41 $GPRMC,112354,A,6943.6768,N,03001.8823,E,0.0,218.9,270515,14.1,E*40
RMC-END
METEO-START
$WIMWV,90,R,010.00,N,A*01 $WIXDR,C,+002.3,C,TEMP,P,1.0089,B,PRESS,H,067.2,P,RH*3C
METEO-END
HDT-START
$HEROT,000.0,A*2B $HEHDT,114.8,T*23
HDT-END
RMC-START
$GPDTM,W84,,00.0000,N,00.0000,E,,W84*41 $GPRMC,112354,A,6943.6768,N,03001.8823,E,0.0,218.9,270515,14.1,E*40
RMC-END
METEO-START
$WIMWV,90,R,010.00,N,A*01 $WIXDR,C,+002.3,C,TEMP,P,1.0089,B,PRESS,H,067.2,P,RH*3C
METEO-END
HDT-START
$HEROT,000.0,A*2B $HEHDT,114.8,T*23
HDT-END
RMC-START
$GPDTM,W84,,00.0000,N,00.0000,E,,W84*41 $GPRMC,112354,A,6943.6768,N,03001.8823,E,0.0,218.9,270515,14.1,E*40
RMC-END
METEO-START
$WIMWV,90,R,010.00,N,A*01 $WIXDR,C,+002.3,C,TEMP,P,1.0089,B,PRESS,H,067.2,P,RH*3C
METEO-END
HDT-START
$HEROT,000.0,A*2B $HEHDT,114.8,T*23
HDT-END
RMC-START
$GPDTM,W84,,00.0000,N,00.0000,E,,W84*41 $GPRMC,112354,A,6943.6768,N,03001.8823,E,0.0,218.9,270515,14.1,E*40
RMC-END
METEO-START
$WIMWV,90,R,010.00,N,A*01 $WIXDR,C,+002.3,C,TEMP,P,1.0089,B,PRESS,H,067.2,P,RH*3C
METEO-END
HDT-START
$HEROT,000.0,A*2B $HEHDT,114.8,T*23
HDT-END
RMC-START
$GPDTM,W84,,00.0000,N,00.0000,E,,W84*41 $GPRMC,112354,A,6943.6768,N,03001.8823,E,0.0,218.9,270515,14.1,E*40
RMC-END
METEO-START
$WIMWV,90,R,010.00,N,A*01 $WIXDR,C,+002.3,C,TEMP,P,1.0089,B,PRESS,H,067.2,P,RH*3C
METEO-END
HDT-START
$HEROT,000.0,A*2B $HEHDT,114.8,T*23
HDT-END
RMC-START
$GPDTM,W84,,00.0000,N,00.0000,E,,W84*41 $GPRMC,112354,A,6943.6768,N,03001.8823,E,0.0,218.9,270515,14.1,E*40
RMC-END
METEO-START
$WIMWV,90,R,010.00,N,A*01 $WIXDR,C,+002.3,C,TEMP,P,1.0089,B,PRESS,H,067.2,P,RH*3C
METEO-END
HDT-START
$HEROT,000.0,A*2B $HEHDT,114.8,T*23
HDT-END
RMC-START
$GPDTM,W84,,00.0000,N,00.0000,E,,W84*41 $GPRMC,112354,A,6943.6768,N,03001.8823,E,0.0,218.9,270515,14.1,E*40
RMC-END
METEO-START
$WIMWV,90,R,010.00,N,A*01 $WIXDR,C,+002.3,C,TEMP,P,1.0089,B,PRESS,H,067.2,P,RH*3C
METEO-END
HDT-START
$HEROT,000.0,A*2B $HEHDT,114.8,T*23
HDT-END
RMC-START
$GPDTM,W84,,00.0000,N,00.0000,E,,W84*41 $GPRMC,112354,A,6943.6768,N,03001.8823,E,0.0,218.9,270515,14.1,E*40
RMC-END
METEO-START
$WIMWV,90,R,010.00,N,A*01 $WIXDR,C,+002.3,C,TEMP,P,1.0089,B,PRESS,H,067.2,P,RH*3C
METEO-END
HDT-START
$HEROT,000.0,A*2B $HEHDT,114.8,T*23
HDT-END
RMC-START
$GPDTM,W84,,00.0000,N,00.0000,E,,W84*41 $GPRMC,112354,A,6943.6768,N,03001.8823,E,0.0,218.9,270515,14.1,E*40
RMC-END
METEO-START
$WIMWV,90,R,010.00,N,A*01 $WIXDR,C,+002.3,C,TEMP,P,1.0089,B,PRESS,H,067.2,P,RH*3C
METEO-END
HDT-START
$HEROT,000.0,A*2B $HEHDT,114.8,T*23
HDT-END
RMC-START
$GPDTM,W84,,00.0000,N,00.0000,E,,W84*41 $GPRMC,112354,A,6943.6768,N,03001.8823,E,0.0,218.9,270515,14.1,E*40
RMC-END
METEO-START
$WIMWV,90,R,010.00,N,A*01 $WIXDR,C,+002.3,C,TEMP,P,1.0089,B,PRESS,H,067.2,P,RH*3C
METEO-END
HDT-START
$HEROT,000.0,A*2B $HEHDT,114.8,T*23
HDT-END
RMC-START
$GPDTM,W84,,00.0000,N,00.0000,E,,W84*41 $GPRMC,112354,A,6943.6768,N,03001.8823,E,0.0,218.9,270515,14.1,E*40
RMC-END
METEO-START
$WIMWV,90,R,010.00,N,A*01 $WIXDR,C,+002.3,C,TEMP,P,1.0089,B,PRESS,H,067.2,P,RH*3C
METEO-END
HDT-START
$HEROT,000.0,A*2B $HEHDT,114.8,T*23
HDT-END
RMC-START
$GPDTM,W84,,00.0000,N,00.0000,E,,W84*41 $GPRMC,112354,A,6943.6768,N,03001.8823,E,0.0,218.9,270515,14.1,E*40
RMC-END
METEO-START
$WIMWV,90,R,010.00,N,A*01 $WIXDR,C,+002.3,C,TEMP,P,1.0089,B,PRESS,H,067.2,P,RH*3C
METEO-END
HDT-START
$HEROT,000.0,A*2B $HEHDT,114.8,T*23
HDT-END
RMC-START
$GPDTM,W84,,00.0000,N,00.0000,E,,W84*41 $GPRMC,112354,A,6943.6768,N,03001.8823,E,0.0,218.9,270515,14.1,E*40
RMC-END
METEO-START
$WIMWV,90,R,010.00,N,A*01 $WIXDR,C,+002.3,C,TEMP,P,1.0089,B,PRESS,H,067.2,P,RH*3C
METEO-END
HDT-START
$HEROT,000.0,A*2B $HEHDT,114.8,T*23
HDT-END
RMC-START
$GPDTM,W84,,00.0000,N,00.0000,E,,W84*41 $GPRMC,112354,A,6943.6768,N,03001.8823,E,0.0,218.9,270515,14.1,E*40
RMC-END
METEO-START
$WIMWV,90,R,010.00,N,A*01 $WIXDR,C,+002.3,C,TEMP,P,1.0089,B,PRESS,H,067.2,P,RH*3C
METEO-END
HDT-START
$HEROT,000.0,A*2B $HEHDT,114.8,T*23
HDT-END
RMC-START
$GPDTM,W84,,00.0000,N,00.0000,E,,W84*41 $GPRMC,112354,A,6943.6768,N,03001.8823,E,0.0,218.9,270515,14.1,E*40
RMC-END
METEO-START
$WIMWV,90,R,010.00,N,A*01 $WIXDR,C,+002.3,C,TEMP,P,1.0089,B,PRESS,H,067.2,P,RH*3C
METEO-END
HDT-START
$HEROT,000.0,A*2B $HEHDT,114.8,T*23
HDT-END
RMC-START
$GPDTM,W84,,00.0000,N,00.0000,E,,W84*41 $GPRMC,112354,A,6943.6768,N,03001.8823,E,0.0,218.9,270515,14.1,E*40
RMC-END
METEO-START
$WIMWV,90,R,010.00,N,A*01 $WIXDR,C,+002.3,C,TEMP,P,1.0089,B,PRESS,H,067.2,P,RH*3C
METEO-END
HDT-START
$HEROT,000.0,A*2B $HEHDT,114.8,T*23
HDT-END
RMC-START
$GPDTM,W84,,00.0000,N,00.0000,E,,W84*41 $GPRMC,112354,A,6943.6768,N,03001.8823,E,0.0,218.9,270515,14.1,E*40
RMC-END
METEO-START
$WIMWV,90,R,010.00,N,A*01 $WIXDR,C,+002.3,C,TEMP,P,1.0089,B,PRESS,H,067.2,P,RH*3C
METEO-END
HDT-START
$HEROT,000.0,A*2B $HEHDT,114.8,T*23
HDT-END
RMC-START
$GPDTM,W84,,00.0000,N,00.0000,E,,W84*41 $GPRMC,112354,A,6943.6768,N,03001.8823,E,0.0,218.9,270515,14.1,E*40
RMC-END
METEO-START
$WIMWV,90,R,010.00,N,A*01 $WIXDR,C,+002.3,C,TEMP,P,1.0089,B,PRESS,H,067.2,P,RH*3C
METEO-END
HDT-START
$HEROT,000.0,A*2B $HEHDT,114.8,T*23
HDT-END
RMC-START
$GPDTM,W84,,00.0000,N,00.0000,E,,W84*41 $GPRMC,112354,A,6943.6768,N,03001.8823,E,0.0,218.9,270515,14.1,E*40
RMC-END
METEO-START
$WIMWV,90,R,010.00,N,A*01 $WIXDR,C,+002.3,C,TEMP,P,1.0089,B,PRESS,H,067.2,P,RH*3C
METEO-END
HDT-START
$HEROT,000.0,A*2B $HEHDT,114.8,T*23
HDT-END
RMC-START
$GPDTM,W84,,00.0000,N,00.0000,E,,W84*41 $GPRMC,112354,A,6943.6768,N,03001.8823,E,0.0,218.9,270515,14.1,E*40
RMC-END
METEO-START
$WIMWV,90,R,010.00,N,A*01 $WIXDR,C,+002.3,C,TEMP,P,1.0089,B,PRESS,H,067.2,P,RH*3C
METEO-END
HDT-START
$HEROT,000.0,A*2B $HEHDT,114.8,T*23
HDT-END
RMC-START
$GPDTM,W84,,00.0000,N,00.0000,E,,W84*41 $GPRMC,112354,A,6943.6768,N,03001.8823,E,0.0,218.9,270515,14.1,E*40
RMC-END
METEO-START
$WIMWV,90,R,010.00,N,A*01 $WIXDR,C,+002.3,C,TEMP,P,1.0089,B,PRESS,H,067.2,P,RH*3C
METEO-END
HDT-START
$HEROT,000.0,A*2B $HEHDT,114.8,T*23
HDT-END
RMC-START
$GPDTM,W84,,00.0000,N,00.0000,E,,W84*41 $GPRMC,112354,A,6943.6768,N,03001.8823,E,0.0,218.9,270515,14.1,E*40
RMC-END
METEO-START
$WIMWV,90,R,010.00,N,A*01 $WIXDR,C,+002.3,C,TEMP,P,1.0089,B,PRESS,H,067.2,P,RH*3C
METEO-END
HDT-START
$HEROT,000.0,A*2B $HEHDT,114.8,T*23
HDT-END
RMC-START
$GPDTM,W84,,00.0000,N,00.0000,E,,W84*41 $GPRMC,112354,A,6943.6768,N,03001.8823,E,0.0,218.9,270515,14.1,E*40
RMC-END
METEO-START
$WIMWV,90,R,010.00,N,A*01 $WIXDR,C,+002.3,C,TEMP,P,1.0089,B,PRESS,H,067.2,P,RH*3C
METEO-END
HDT-START
$HEROT,000.0,A*2B $HEHDT,114.8,T*23
HDT-END
RMC-START
$GPDTM,W84,,00.0000,N,00.0000,E,,W84*41 $GPRMC,112354,A,6943.6768,N,03001.8823,E,0.0,218.9,270515,14.1,E*40
RMC-END
METEO-START
$WIMWV,90,R,010.00,N,A*01 $WIXDR,C,+002.3,C,TEMP,P,1.0089,B,PRESS,H,067.2,P,RH*3C
METEO-END
HDT-START
$HEROT,000.0,A*2B $HEHDT,114.8,T*23
HDT-END
RMC-START
$GPDTM,W84,,00.0000,N,00.0000,E,,W84*41 $GPRMC,112354,A,6943.6768,N,03001.8823,E,0.0,218.9,270515,14.1,E*40
RMC-END
METEO-START
$WIMWV,90,R,010.00,N,A*01 $WIXDR,C,+002.3,C,TEMP,P,1.0089,B,PRESS,H,067.2,P,RH*3C
METEO-END
HDT-START
$HEROT,000.0,A*2B $HEHDT,114.8,T*23
HDT-END
RMC-START
$GPDTM,W84,,00.0000,N,00.0000,E,,W84*41 $GPRMC,112354,A,6943.6768,N,03001.8823,E,0.0,218.9,270515,14.1,E*40
RMC-END
METEO-START
$WIMWV,90,R,010.00,N,A*01 $WIXDR,C,+002.3,C,TEMP,P,1.0089,B,PRESS,H,067.2,P,RH*3C
METEO-END
HDT-START
$HEROT,000.0,A*2B $HEHDT,114.8,T*23
HDT-END
RMC-START
$GPDTM,W84,,00.0000,N,00.0000,E,,W84*41 $GPRMC,112354,A,6943.6768,N,03001.8823,E,0.0,218.9,270515,14.1,E*40
RMC-END
METEO-START
$WIMWV,90,R,010.00,N,A*01 $WIXDR,C,+002.3,C,TEMP,P,1.0089,B,PRESS,H,067.2,P,RH*3C
METEO-END
HDT-START
$HEROT,000.0,A*2B $HEHDT,114.8,T*23
HDT-END
RMC-START
$GPDTM,W84,,00.0000,N,00.0000,E,,W84*41 $GPRMC,112354,A,6943.6768,N,03001.8823,E,0.0,218.9,270515,14.1,E*40
RMC-END
METEO-START
$WIMWV,90,R,010.00,N,A*01 $WIXDR,C,+002.3,C,TEMP,P,1.0089,B,PRESS,H,067.2,P,RH*3C
METEO-END
HDT-START
$HEROT,000.0,A*2B $HEHDT,114.8,T*23
HDT-END
RMC-START
$GPDTM,W84,,00.0000,N,00.0000,E,,W84*41 $GPRMC,112354,A,6943.6768,N,03001.8823,E,0.0,218.9,270515,14.1,E*40
RMC-END
METEO-START
$WIMWV,90,R,010.00,N,A*01 $WIXDR,C,+002.3,C,TEMP,P,1.0089,B,PRESS,H,067.2,P,RH*3C
METEO-END
HDT-START
$HEROT,000.0,A*2B $HEHDT,114.8,T*23
HDT-END
RMC-START
$GPDTM,W84,,00.0000,N,00.0000,E,,W84*41 $GPRMC,112354,A,6943.6768,N,03001.8823,E,0.0,218.9,270515,14.1,E*40
RMC-END
METEO-START
$WIMWV,90,R,010.00,N,A*01 $WIXDR,C,+002.3,C,TEMP,P,1.0089,B,PRESS,H,067.2,P,RH*3C
METEO-END
HDT-START
$HEROT,000.0,A*2B $HEHDT,114.8,T*23
HDT-END
RMC-START
$GPDTM,W84,,00.0000,N,00.0000,E,,W84*41 $GPRMC,112354,A,6943.6768,N,03001.8823,E,0.0,218.9,270515,14.1,E*40
RMC-END
METEO-START
$WIMWV,90,R,010.00,N,A*01 $WIXDR,C,+002.3,C,TEMP,P,1.0089,B,PRESS,H,067.2,P,RH*3C
METEO-END
HDT-START
$HEROT,000.0,A*2B $HEHDT,114.8,T*23
HDT-END
RMC-START
$GPDTM,W84,,00.0000,N,00.0000,E,,W84*41 $GPRMC,112354,A,6943.6768,N,03001.8823,E,0.0,218.9,270515,14.1,E*40
RMC-END
METEO-START
$WIMWV,90,R,010.00,N,A*01 $WIXDR,C,+002.3,C,TEMP,P,1.0089,B,PRESS,H,067.2,P,RH*3C
METEO-END
HDT-START
$HEROT,000.0,A*2B $HEHDT,114.8,T*23
HDT-END
RMC-START
$GPDTM,W84,,00.0000,N,00.0000,E,,W84*41 $GPRMC,112354,A,6943.6768,N,03001.8823,E,0.0,218.9,270515,14.1,E*40
RMC-END
METEO-START
$WIMWV,90,R,010.00,N,A*01 $WIXDR,C,+002.3,C,TEMP,P,1.0089,B,PRESS,H,067.2,P,RH*3C
METEO-END
HDT-START
$HEROT,000.0,A*2B $HEHDT,114.8,T*23
HDT-END
RMC-START
$GPDTM,W84,,00.0000,N,00.0000,E,,W84*41 $GPRMC,112354,A,6943.6768,N,03001.8823,E,0.0,218.9,270515,14.1,E*40
RMC-END
METEO-START
$WIMWV,90,R,010.00,N,A*01 $WIXDR,C,+002.3,C,TEMP,P,1.0089,B,PRESS,H,067.2,P,RH*3C
METEO-END
HDT-START
$HEROT,000.0,A*2B $HEHDT,114.8,T*23
HDT-END
RMC-START
$GPDTM,W84,,00.0000,N,00.0000,E,,W84*41 $GPRMC,112354,A,6943.6768,N,03001.8823,E,0.0,218.9,270515,14.1,E*40
RMC-END
